[
  {
    "id": "0001",
    "name": "海遊館",
    "type": "観光地",
    "time": "10:30",
    "hours": "10:00-19:00",
    "address": "大阪府大阪市港区海岸通１丁目１−１０",
    "intro": "ジンベイザメがいるよxxxxxxxxxxxxxxxxxxxxxxxxxxxxxxxxxxxxxxxxxxxxxxxxxxxxxxxxxxxxxxx",
    "color": "deep-purple lighten-1",
    "imageUrl": "https://images.newswitch.jp/images/phpJRTPqh_5c41ab797b02c.jpg"
  },
  {
    "id": "0002",
    "name": "通天閣",
    "type": "観光地",
    "time": "12:30",
    "hours": "10:00-19:00",
    "address": "大阪府大阪市港区海岸通１丁目１−１０",
    "intro": "(紹介)xxxxxxxxxxxxxxxxxxxxxxxxxxxxxxxxxxxxxxxxxxxxxxxxxxxxxxxxxxxxxxx",
    "color": "deep-purple lighten-1",
    "imageUrl": "https://www.img-ikyu.com/contents/dg/special/kankou/spot/3443_origin.jpg?auto=compress,format&fit=crop&w=600&h=530&lossless=0"
  },
  {
    "id": "0003",
    "name": "串カツだるま",
    "type": "ご飯",
    "time": "13:30",
    "hours": "10:00-19:00",
    "address": "大阪府大阪市港区海岸通１丁目１−１０",
    "intro": "(紹介)xxxxxxxxxxxxxxxxxxxxxxxxxxxxxxxxxxxxxxxxxxxxxxxxxxxxxxxxxxxxxxx",
    "color": "deep-purple lighten-1",
    "imageUrl": "https://ximg.retty.me/crop/s220x220/q80/das/-/retty/img_ebisu/restaurant/100001536564/archive/1683193-5ec736ed76f68-l.jpeg"
  },
  {
    "id": "0004",
    "name": "大阪城",
    "type": "観光地",
    "time": "16:00",
    "hours": "10:00-19:00",
    "address": "大阪府大阪市港区海岸通１丁目１−１０",
    "intro": "(紹介)xxxxxxxxxxxxxxxxxxxxxxxxxxxxxxxxxxxxxxxxxxxxxxxxxxxxxxxxxxxxxxx",
    "color": "deep-purple lighten-1",
    "imageUrl": "https://www.icosaka.com/wp-content/uploads/2016/08/osakacastle_sakura400.jpg"
  }
]
